,City,Lat,Lng,Max Temp,Humidity,Cloudiness,Wind Speed,Country,Date
0,Lebu,-37.6167,-73.65,55.8,87,0,6.08,CL,1615682403
1,Bluff,-46.6,168.3333,73.0,44,62,15.01,NZ,1615682667
2,Rikitea,-23.1203,-134.9692,80.51,73,37,8.7,PF,1615682667
3,Jacksonville Beach,30.2947,-81.3931,71.6,60,1,10.36,US,1615682668
4,Tiksi,71.6872,128.8694,-0.08,88,100,6.13,RU,1615682668
5,Butaritari,3.0707,172.7902,80.8,79,92,10.83,KI,1615682668
6,Hermanus,-34.4187,19.2345,64.99,94,97,1.01,ZA,1615682669
7,Juneau,58.3019,-134.4197,19.99,73,100,7.43,US,1615682669
8,Kruisfontein,-34.0033,24.7314,66.99,87,89,1.01,ZA,1615682669
9,Oranjemund,-28.55,16.4333,65.53,84,26,6.02,NA,1615682670
10,Nikolskoye,59.7035,30.7861,36.0,87,75,6.71,RU,1615682670
11,Hong Kong,22.2855,114.1577,70.0,81,72,4.0,HK,1615682670
12,Valparaíso,-33.0393,-71.6273,60.8,82,75,6.91,CL,1615682519
13,Boa Vista,2.8197,-60.6733,78.8,78,20,3.44,BR,1615682671
14,Marzuq,14.4,46.4667,57.6,33,0,4.14,YE,1615682671
15,Provideniya,64.3833,-173.3,22.57,94,100,28.61,RU,1615682671
16,Port Alfred,-33.5906,26.891,72.0,79,79,5.01,ZA,1615682672
17,Mount Isa,-20.7333,139.5,86.0,51,0,12.66,AU,1615682672
18,Puerto Gaitán,4.3133,-72.0816,83.44,57,100,6.64,CO,1615682443
19,Savonlinna,61.8699,28.88,32.0,100,90,6.91,FI,1615682673
20,Itoman,26.1247,127.6694,68.0,60,75,5.75,JP,1615682673
21,Ushuaia,-54.8,-68.3,42.8,65,75,23.02,AR,1615682402
22,Akola,20.7333,77.0,72.39,33,0,5.03,IN,1615682673
23,Monrovia,6.3005,-10.7969,77.0,94,75,7.92,LR,1615682674
24,Saint Paul Harbor,57.79,-152.4072,35.6,20,1,13.8,US,1615682674
25,Torbay,47.6666,-52.7314,32.0,86,90,18.41,CA,1615682674
26,Malbork,54.0359,19.0266,39.99,100,19,14.16,PL,1615682485
27,Moussoro,13.6408,16.4901,82.56,11,0,8.34,TD,1615682675
28,Périgueux,45.1833,0.7167,42.01,91,73,8.43,FR,1615682675
29,New Norfolk,-42.7826,147.0587,59.0,35,0,8.01,AU,1615682676
30,Impfondo,1.6381,18.0667,73.29,84,100,2.73,CG,1615682676
31,Buta,2.7858,24.73,70.88,99,100,0.72,CD,1615682676
32,Yellowknife,62.456,-114.3525,0.0,71,90,4.61,CA,1615682676
33,Yarim,14.298,44.3779,53.28,51,0,0.85,YE,1615682677
34,Bonthe,7.5264,-12.505,79.14,82,100,9.01,SL,1615682677
35,Dikson,73.5069,80.5464,-22.09,97,100,16.02,RU,1615682678
36,Hithadhoo,-0.6,73.0833,84.13,66,36,9.04,MV,1615682678
37,Punta Arenas,-53.15,-70.9167,48.0,53,40,12.66,CL,1615682678
38,College,64.8569,-147.8028,10.99,40,1,2.51,US,1615682679
39,Tuktoyaktuk,69.4541,-133.0374,-9.4,84,90,4.61,CA,1615682679
40,Busselton,-33.65,115.3333,61.0,69,0,5.01,AU,1615682679
41,Hobart,-42.8794,147.3294,59.0,36,0,18.41,AU,1615682672
42,Avarua,-21.2078,-159.775,84.2,70,0,5.75,CK,1615682513
43,Chui,-33.6971,-53.4616,61.88,76,0,5.68,UY,1615682680
44,Ballina,-28.8667,153.5667,82.4,65,40,9.22,AU,1615682680
45,Alofi,-19.0595,-169.9187,82.4,78,96,9.22,NU,1615682681
46,Lüderitz,-26.6481,15.1594,66.9,73,0,9.75,NA,1615682681
47,Port Elizabeth,-33.918,25.5701,71.6,68,40,8.05,ZA,1615682471
48,Atuona,-9.8,-139.0333,79.56,62,0,5.61,PF,1615682681
49,Tuatapere,-46.1333,167.6833,73.0,44,2,15.01,NZ,1615682682
50,Ugoofaaru,5.6667,73.0,82.85,79,9,13.85,MV,1615682682
51,Bredasdorp,-34.5322,20.0403,66.2,88,88,9.22,ZA,1615682682
52,Yangi Marg`ilon,40.4272,71.7189,37.4,87,90,16.11,UZ,1615682683
53,Cherskiy,68.75,161.3,-3.64,94,100,13.67,RU,1615682683
54,Broken Hill,-31.95,141.4333,57.2,51,0,25.32,AU,1615682683
55,Oktyabr'skiy,54.4815,53.471,-1.21,90,52,8.08,RU,1615682684
56,Zhangjiakou,40.81,114.8794,42.22,79,100,9.98,CN,1615682684
57,Norman Wells,65.282,-126.8329,-2.2,60,75,2.3,CA,1615682540
58,Coyhaique,-45.5752,-72.0662,59.0,67,0,3.44,CL,1615682685
59,East London,-33.0153,27.9116,74.43,78,0,13.24,ZA,1615682685
60,Castro,-24.7911,-50.0119,65.64,86,57,4.03,BR,1615682685
61,Ubinskoye,55.3068,79.6802,-8.05,99,100,8.55,RU,1615682686
62,Springbok,-29.6643,17.8865,62.4,54,100,2.57,ZA,1615682686
63,Mataura,-46.1927,168.8643,73.0,44,9,15.01,NZ,1615682686
64,Cape Town,-33.9258,18.4232,66.99,94,75,6.91,ZA,1615682509
65,Pevek,69.7008,170.3133,-2.76,95,100,4.88,RU,1615682687
66,Listvyanka,51.8535,104.8693,14.0,85,90,35.79,RU,1615682687
67,Kahului,20.8947,-156.47,72.0,77,90,17.27,US,1615682681
68,Kapaa,22.0752,-159.319,73.0,94,90,25.32,US,1615682688
69,Beloha,-25.1667,45.05,73.24,79,0,14.27,MG,1615682688
70,Warwick,41.7001,-71.4162,39.2,26,1,3.44,US,1615682688
71,San Cristobal,7.7669,-72.225,77.0,69,40,2.3,VE,1615682689
72,Atar,20.5169,-13.0499,65.61,13,0,6.33,MR,1615682689
73,Albany,42.6001,-73.9662,36.0,42,3,3.98,US,1615682689
74,Kelvington,52.1667,-103.5343,44.6,49,72,5.75,CA,1615682690
75,Huitzó,19.9667,-102.0667,80.6,36,1,6.91,MX,1615682690
76,Gijang,35.2442,129.2139,48.2,81,20,3.44,KR,1615682690
77,Kalawit,8.0667,122.5167,81.36,81,100,8.21,PH,1615682691
78,Airai,-8.9266,125.4092,70.81,77,27,0.67,TL,1615682691
79,Jamestown,42.097,-79.2353,34.0,47,1,9.4,US,1615682691
80,Hualmay,-11.0964,-77.6139,72.05,78,1,4.25,PE,1615682692
81,Natal,-5.795,-35.2094,80.6,74,40,10.36,BR,1615682662
82,São João da Barra,-21.6403,-41.0511,76.48,87,100,11.41,BR,1615682692
83,Los Llanos de Aridane,28.6585,-17.9182,64.4,72,75,8.05,ES,1615682693
84,Saint-Augustin,51.226,-58.6502,19.65,75,100,18.19,CA,1615682693
85,Barrow,71.2906,-156.7887,-2.2,65,1,12.66,US,1615682693
86,Maceió,-9.6658,-35.7353,75.2,88,20,4.61,BR,1615682638
87,Faanui,-16.4833,-151.75,83.26,74,0,12.37,PF,1615682694
88,Saint-Philippe,-21.3585,55.7679,77.0,69,0,6.91,RE,1615682694
89,Lookan,5.037,120.1027,82.11,72,7,1.66,PH,1615682694
90,Tsiroanomandidy,-18.7667,46.0333,61.97,85,0,2.37,MG,1615682695
91,Sept-Îles,50.2001,-66.3821,15.8,45,75,10.36,CA,1615682507
92,Carnarvon,-24.8667,113.6333,86.0,62,36,12.66,AU,1615682695
93,La Ronge,55.1001,-105.2842,32.0,51,41,9.22,CA,1615682696
94,Quatre Cocos,-20.2078,57.7625,80.6,83,75,8.05,MU,1615682696
95,Hilo,19.7297,-155.09,71.6,83,90,3.44,US,1615682696
96,Vaini,-21.2,-175.2,78.8,83,75,8.05,TO,1615682697
97,Puerto Ayora,-0.7393,-90.3518,80.01,89,100,8.01,EC,1615682697
98,Myre,69.1036,15.9492,36.0,93,90,8.05,NO,1615682697
99,Nova Serrana,-19.8761,-44.9836,68.34,90,99,2.48,BR,1615682698
100,Polysayevo,54.6012,86.2459,-6.9,91,70,8.37,RU,1615682698
101,Tadine,-21.55,167.8833,79.83,72,100,14.88,NC,1615682698
102,Qasigiannguit,68.8193,-51.1922,10.4,67,20,14.97,GL,1615682699
103,Montague,42.5356,-72.5351,35.6,30,1,9.22,US,1615682699
104,Girona,41.9831,2.8249,45.0,93,1,2.86,ES,1615682699
105,Port Macquarie,-31.4333,152.9167,89.01,69,40,6.91,AU,1615682700
106,Fairbanks,64.8378,-147.7164,10.99,47,1,2.59,US,1615682700
107,Bontang,0.1333,117.5,81.41,75,23,3.56,ID,1615682700
108,Bratsk,56.1325,101.6142,6.8,78,40,15.66,RU,1615682691
109,Hadrut,39.52,47.0318,24.57,95,86,0.92,AZ,1615682701
110,Samarai,-10.6167,150.6667,82.67,76,100,14.47,PG,1615682701
111,Gopināthpur,22.65,86.0667,64.4,94,40,1.66,IN,1615682702
112,Ranong,9.9658,98.6348,75.2,94,20,4.61,TH,1615682460
113,Kuril'sk,45.2333,147.8833,35.71,63,100,7.45,RU,1615682702
114,Clyde River,70.4692,-68.5914,-5.8,84,90,20.71,CA,1615682703
115,Saint-Pierre,-21.3393,55.4781,77.0,69,0,6.91,RE,1615682703
116,Bāfq,31.6128,55.4107,45.55,53,0,6.51,IR,1615682703
117,Ponta do Sol,32.6667,-17.1,57.99,72,100,1.01,PT,1615682704
118,Gunjur,13.2019,-16.7339,77.0,44,1,3.44,GM,1615682704
119,Banepā,27.6298,85.5214,50.0,93,20,3.44,NP,1615682704
120,Chokurdakh,70.6333,147.9167,-14.6,87,0,3.6,RU,1615682705
121,Port Hardy,50.6996,-127.4199,46.4,87,90,12.66,CA,1615682705
122,Rockport,28.0206,-97.0544,73.4,88,90,16.11,US,1615682705
123,Umm Hājar,13.2954,19.6966,82.63,13,68,10.98,TD,1615682407
124,Lewistown,40.5992,-77.5714,44.6,26,1,12.66,US,1615682706
125,Paamiut,61.994,-49.6678,17.58,51,100,8.28,GL,1615682706
126,Walvis Bay,-22.9575,14.5053,64.0,88,13,4.61,NA,1615682706
127,Utete,-7.986,38.758,70.93,94,2,1.03,TZ,1615682707
128,Bud,39.447,-86.1758,45.0,42,1,4.34,US,1615682707
129,Teluknaga,-6.0989,106.6381,82.0,78,20,5.75,ID,1615682708
130,Richards Bay,-28.783,32.0377,73.78,81,0,12.15,ZA,1615682679
131,Cabedelo,-6.9811,-34.8339,80.6,74,40,9.22,BR,1615682708
132,Kamaishi,39.2667,141.8833,44.6,65,75,14.97,JP,1615682708
133,Nanortalik,60.1432,-45.2371,26.33,77,100,5.28,GL,1615682709
134,Xining,36.6167,101.7667,46.87,26,100,2.01,CN,1615682709
135,Mumbwa,-14.9783,27.0619,62.38,97,0,3.15,ZM,1615682710
136,Dwārka,22.2394,68.9678,75.15,73,0,12.39,IN,1615682710
137,Ola,59.5833,151.2833,2.19,54,0,2.1,RU,1615682695
138,Nobeoka,32.5833,131.6667,58.37,49,0,2.24,JP,1615682710
139,Fare,-16.7,-151.0167,82.89,72,1,12.64,PF,1615682711
140,Talnakh,69.4865,88.3972,-21.64,98,100,9.24,RU,1615682711
141,Mariehamn,60.0973,19.9348,32.0,100,90,1.14,AX,1615682711
142,Tasiilaq,65.6145,-37.6368,24.8,86,75,27.63,GL,1615682712
143,Pisco,-13.7,-76.2167,75.2,73,0,3.44,PE,1615682712
144,Thompson,55.7435,-97.8558,15.8,53,20,9.22,CA,1615682712
145,Labuhan,-6.8844,112.2051,80.69,75,97,5.95,ID,1615682713
146,Meulaboh,4.1363,96.1285,77.16,83,51,3.69,ID,1615682713
147,Ishigaki,24.3448,124.1572,68.0,64,75,10.36,JP,1615682713
148,Tres Arroyos,-38.3739,-60.2798,64.6,55,89,7.2,AR,1615682714
149,Saskylakh,71.9167,114.0833,-8.86,94,100,13.15,RU,1615682714
150,San Andrés,12.5847,-81.7006,80.6,74,40,11.5,CO,1615682655
151,Melilla,35.2937,-2.9383,59.0,63,0,5.75,ES,1615682715
152,Berdigestyakh,62.0989,126.6992,13.14,89,93,9.13,RU,1615682715
153,Abu Samrah,35.3029,37.1841,47.1,71,100,3.24,SY,1615682715
154,Vizinga,61.0749,50.1031,15.94,91,100,10.67,RU,1615682716
155,Bambous Virieux,-20.3428,57.7575,80.6,83,75,8.05,MU,1615682716
156,Karārī,25.45,81.4333,66.76,45,0,4.59,IN,1615682717
157,Evensk,61.95,159.2333,2.32,65,91,2.86,RU,1615682717
158,Brae,60.3964,-1.353,42.8,81,90,25.32,GB,1615682717
159,Marathon,44.9,-89.7668,53.6,32,1,13.8,US,1615682718
160,Cockburn Town,21.4612,-71.1419,76.21,75,0,19.35,TC,1615682640
161,Usmajac,19.8667,-103.5667,84.2,39,1,11.5,MX,1615682718
162,Hellín,38.5106,-1.701,45.0,87,0,3.44,ES,1615682718
163,Kabanjahe,3.1001,98.4908,77.0,88,40,5.75,ID,1615682719
164,Pangnirtung,66.1451,-65.7125,-13.47,98,99,0.69,CA,1615682719
165,Khatanga,71.9667,102.5,-19.52,94,78,11.83,RU,1615682719
166,Qaanaaq,77.484,-69.3632,-1.34,63,100,7.83,GL,1615682720
167,Northam,51.0333,-4.2167,46.0,82,63,11.01,GB,1615682720
168,Fukuechō,32.6881,128.8419,55.4,71,40,2.3,JP,1615682720
169,Leiyang,26.4024,112.8591,63.88,79,0,2.35,CN,1615682721
170,Cidreira,-30.1811,-50.2056,73.81,86,1,10.76,BR,1615682721
171,Shetpe,44.1667,52.1167,25.27,42,30,7.23,KZ,1615682721
172,Waipawa,-41.4122,175.5153,69.8,64,0,20.71,NZ,1615682722
173,Katsuura,35.1333,140.3,61.0,53,44,3.0,JP,1615682722
174,Klaksvík,62.2266,-6.589,41.0,87,75,28.77,FO,1615682722
175,São Filipe,14.8961,-24.4956,70.23,75,0,5.91,CV,1615682723
176,Bandarbeyla,9.4942,50.8122,77.88,75,99,8.21,SO,1615682723
177,Acajutla,13.5928,-89.8275,73.99,94,36,3.0,SV,1615682465
178,Bambanglipuro,-7.95,110.2833,81.54,69,91,3.04,ID,1615682723
179,Nelson Bay,-32.7167,152.15,71.01,100,75,18.41,AU,1615682724
180,Ilulissat,69.2167,-51.1,10.4,67,20,14.97,GL,1615682724
181,Fortuna,40.5982,-124.1573,52.0,76,90,13.8,US,1615682724
182,Bānsi,27.1833,82.9333,63.73,45,0,5.39,IN,1615682725
183,Zwedru,6.0667,-8.1281,73.8,95,100,4.25,LR,1615682725
184,Japura,-0.3167,102.35,74.44,95,100,2.21,ID,1615682725
185,Port Shepstone,-30.7414,30.455,73.58,84,0,14.85,ZA,1615682726
186,Estelle,29.8458,-90.1067,71.6,73,1,9.22,US,1615682726
187,Yumbe,3.4651,31.2469,72.77,44,78,1.23,UG,1615682726
188,Kavaratti,10.5669,72.642,82.87,68,98,6.93,IN,1615682727
189,Bubaque,11.2833,-15.8333,78.08,61,99,9.64,GW,1615682727
190,Ancud,-41.8697,-73.8203,54.0,82,0,4.61,CL,1615682727
191,Vyazemskiy,47.5378,134.7525,33.37,73,0,2.48,RU,1615682728
192,Nayoro,44.3506,142.4578,40.24,76,100,6.69,JP,1615682728
193,Lagoa,39.05,-27.9833,60.31,85,100,27.78,PT,1615682728
194,Lazarev,52.225,141.5131,30.78,91,0,17.63,RU,1615682729
195,Sola,-13.8833,167.55,80.6,89,90,10.85,VU,1615682729
196,Reporoa,-38.4333,176.35,82.0,36,20,1.01,NZ,1615682436
197,Pathanāmthitta,9.2667,76.7833,72.81,81,2,2.53,IN,1615682692
198,Iqaluit,63.7506,-68.5145,-18.0,69,75,13.8,CA,1615682730
199,Martapura,-3.4167,114.85,77.0,94,40,4.61,ID,1615682730
200,George Town,5.4112,100.3354,80.6,88,20,2.3,MY,1615682731
201,Olenino,56.2092,33.4889,31.96,98,100,9.48,RU,1615682731
202,Bethel,41.3712,-73.414,42.8,24,1,5.75,US,1615682731
203,Leningradskiy,69.3833,178.4167,23.7,86,100,5.93,RU,1615682732
204,Beba,22.4437,-79.7253,71.6,73,20,10.36,CU,1615682732
205,Pagudpud,18.5616,120.7868,82.4,57,40,5.75,PH,1615682732
206,Paredon,16.0333,-93.8667,80.69,72,1,5.95,MX,1615682733
207,Adré,13.4667,22.2,74.55,17,52,14.74,TD,1615682733
208,Longyearbyen,78.2186,15.6401,5.0,61,75,10.36,SJ,1615682733
209,Ucluelet,48.9329,-125.5528,46.0,93,90,13.8,CA,1615682665
210,Hofn,64.2539,-15.2082,35.08,55,99,10.13,IS,1615682734
211,Sakakah,29.9697,40.2064,53.6,47,0,5.75,SA,1615682734
212,Fergus Falls,46.283,-96.0776,48.2,61,1,5.75,US,1615682734
213,San Patricio,28.017,-97.5169,72.0,83,90,25.32,US,1615682735
214,Primorsko-Akhtarsk,46.0497,38.1747,34.23,70,94,8.5,RU,1615682735
215,Astoria,46.1879,-123.8313,48.99,76,1,20.71,US,1615682709
216,South Sioux City,42.4739,-96.4136,55.4,38,40,10.36,US,1615682736
217,Kongsberg,59.6652,9.6465,30.99,84,100,2.06,NO,1615682736
218,Noumea,-22.2763,166.4572,87.8,48,75,3.44,NC,1615682551
219,Tocopilla,-22.092,-70.1979,69.24,83,12,7.78,CL,1615682736
220,Mar del Plata,-38.0023,-57.5575,68.0,82,0,10.51,AR,1615682737
221,Dingle,10.9995,122.6711,80.89,81,48,5.08,PH,1615682737
222,Key Largo,25.0865,-80.4473,73.0,73,0,1.99,US,1615682737
223,Udachny,66.4167,112.4,3.74,88,100,14.63,RU,1615682738
224,Portland,45.5234,-122.6762,62.6,34,75,4.61,US,1615682280
225,Katobu,-4.9408,122.5276,84.63,69,78,2.08,ID,1615682738
226,Imaichi,36.7167,139.6833,53.01,49,59,15.01,JP,1615682738
227,Khovu-Aksy,51.1333,93.6,-5.71,77,0,1.88,RU,1615682739
228,Batagay-Alyta,67.8006,130.4114,-10.8,86,100,2.68,RU,1615682739
229,Berlevåg,70.8578,29.0864,24.3,81,100,6.98,NO,1615682739
230,Mahébourg,-20.4081,57.7,80.6,83,75,8.05,MU,1615682740
231,Dunmore Town,25.5,-76.65,72.07,78,12,16.35,BS,1615682740
232,Skibbereen,51.55,-9.2667,39.2,81,20,16.11,IE,1615682740
233,Tautira,-17.7333,-149.15,87.8,62,20,5.75,PF,1615682741
234,Assiut,27.181,31.1837,54.73,50,100,8.34,EG,1615682741
235,Saint George,37.1041,-113.5841,50.0,57,1,5.75,US,1615682624
236,Tsabong,-26.0217,22.401,73.83,45,1,11.83,BW,1615682741
237,Nicoya,10.1483,-85.452,84.2,45,0,19.57,CR,1615682651
238,Alice Springs,-23.7,133.8833,59.0,100,90,14.97,AU,1615682742
239,Laguna,38.421,-121.4238,64.4,48,1,12.66,US,1615682742
240,Darlawn,24.0167,92.9,63.91,57,7,2.28,IN,1615682742
241,Mt. Pleasant,32.7941,-79.8626,62.01,63,90,11.74,US,1615682743
242,Ouésso,1.6136,16.0517,73.11,82,100,2.51,CG,1615682743
243,Avera,33.194,-82.5271,69.8,77,1,4.61,US,1615682743
244,Vengerovo,55.6848,76.7471,-4.32,99,100,7.49,RU,1615682744
245,Codrington,-38.2667,141.9667,59.74,49,80,12.37,AU,1615682744
246,Rocha,-34.4833,-54.3333,57.45,80,0,3.06,UY,1615682744
247,Baykit,61.67,96.37,3.58,89,100,11.92,RU,1615682745
248,Houma,29.5958,-90.7195,71.6,60,1,11.5,US,1615682694
249,Thai Binh,20.45,106.3333,69.8,94,20,2.3,VN,1615682745
250,Geraldton,-28.7667,114.6,77.0,31,0,29.93,AU,1615682746
251,Umm Kaddadah,13.6017,26.6876,74.53,10,0,16.58,SD,1615682746
252,Hays,30.0502,-98.0336,72.0,57,100,11.01,US,1615682746
253,Tommot,58.9564,126.2925,18.55,83,100,7.47,RU,1615682747
254,Shelburne,44.0787,-80.2041,39.0,58,4,19.75,CA,1615682747
255,Yashkino,55.8736,85.4265,0.0,71,40,15.66,RU,1615682747
256,Cayenne,4.9333,-52.3333,75.99,94,40,10.56,GF,1615682748
257,Gisborne,-38.6533,178.0042,66.0,70,42,5.01,NZ,1615682748
258,Winona,43.9666,-91.7668,50.0,57,1,3.44,US,1615682748
259,Helong,42.5397,128.9972,46.26,44,0,3.69,CN,1615682749
260,Vostok,46.4856,135.8833,35.15,81,42,1.81,RU,1615682749
261,Upernavik,72.7868,-56.1549,-5.71,99,100,4.54,GL,1615682749
262,Soyo,-6.1349,12.3689,80.24,86,100,7.31,AO,1615682750
263,Hirado,33.3597,129.5531,57.99,87,75,4.61,JP,1615682750
264,Abalak,58.1286,68.5944,3.9,96,60,6.13,RU,1615682750
265,Papetoai,-17.4961,-149.8729,87.8,62,20,5.75,PF,1615682751
266,Narsaq,60.9167,-46.05,24.8,58,75,2.86,GL,1615682751
267,Sayyan,15.1718,44.3244,54.45,25,3,0.07,YE,1615682751
268,Umluj,25.0213,37.2685,70.86,62,100,9.42,SA,1615682752
269,Yinchuan,38.4681,106.2731,56.25,29,100,2.84,CN,1615682752
270,Mossamedes,-15.1961,12.1522,74.21,82,100,7.25,AO,1615682752
271,Isabela,6.7085,121.9711,82.4,83,40,3.44,PH,1615682753
272,Kibala,9.1104,18.3463,87.8,37,0,2.95,TD,1615682753
273,Chicama,-7.8447,-79.1469,74.86,70,18,5.61,PE,1615682753
274,Ol'ga,43.7444,135.2892,43.83,41,100,4.0,RU,1615682754
275,Arraial do Cabo,-22.9661,-42.0278,77.0,86,100,13.22,BR,1615682754
276,Kieta,-6.2167,155.6333,85.69,62,89,6.24,PG,1615682754
277,Bomi,7.2461,-11.5258,76.44,93,100,1.59,SL,1615682754
278,Puerto Escondido,15.85,-97.0667,82.4,78,40,8.05,MX,1615682755
279,Antofagasta,-23.65,-70.4,68.0,83,20,10.36,CL,1615682755
280,Dongfeng,42.6403,125.5118,44.04,62,0,6.31,CN,1615682756
281,Taltal,-25.4,-70.4833,65.91,87,29,4.7,CL,1615682756
282,El Alto,-4.2714,-81.2147,76.1,71,100,8.55,PE,1615682756
283,Zhigansk,66.7697,123.3711,6.76,94,97,10.92,RU,1615682757
284,Henties Bay,-22.116,14.2845,64.0,93,0,4.0,NA,1615682757
285,Tual,-5.6667,132.75,83.16,72,77,8.7,ID,1615682757
286,Ribeira Grande,38.5167,-28.7,61.84,85,100,26.89,PT,1615682758
287,Thinadhoo,0.5333,72.9333,83.37,71,48,7.87,MV,1615682758
288,Fort Nelson,58.8053,-122.7002,3.2,72,90,10.36,CA,1615682473
289,Rochegda,62.8,43.25,23.4,92,100,10.38,RU,1615682758
290,Half Moon Bay,37.4636,-122.4286,54.0,71,90,9.22,US,1615682759
291,Tamandaré,-8.7597,-35.1047,78.03,79,0,8.16,BR,1615682759
292,Gushikawa,26.3544,127.8686,66.2,82,40,5.75,JP,1615682760
293,Wilmington,34.2257,-77.9447,57.99,58,90,8.05,US,1615682071
294,Hasaki,35.7333,140.8333,57.2,41,20,19.57,JP,1615682760
295,Broome,42.2506,-75.833,36.0,37,1,4.61,US,1615682760
296,Salalah,17.0151,54.0924,71.6,78,0,2.3,OM,1615682761
297,Brookings,44.3114,-96.7984,51.8,40,1,3.44,US,1615682705
298,Saint-Joseph,-21.3667,55.6167,77.0,69,0,6.91,RE,1615682761
299,Santo Domingo,18.5001,-69.9886,75.0,94,40,9.22,DO,1615682598
300,Ōdachō-ōda,35.1833,132.5,44.6,87,20,5.75,JP,1615682761
301,Souillac,-20.5167,57.5167,80.6,83,75,8.05,MU,1615682762
302,Dickinson,29.4608,-95.0513,72.0,87,100,4.0,US,1615682762
303,Qaqortoq,60.7167,-46.0333,24.8,58,75,2.15,GL,1615682762
304,China,25.7,-99.2333,78.17,55,33,28.3,MX,1615682763
305,Kudahuvadhoo,2.6708,72.8944,83.26,70,77,8.32,MV,1615682763
306,Kaitangata,-46.2817,169.8464,64.0,69,0,8.01,NZ,1615682763
307,Buraidah,26.326,43.975,59.0,51,4,4.61,SA,1615682532
308,Yumen,40.2833,97.2,49.69,15,89,6.67,CN,1615682764
309,Tilichiki,60.4667,166.1,4.06,79,100,16.82,RU,1615682764
310,Tessalit,20.1986,1.0114,64.4,43,6,9.28,ML,1615682764
311,Aden,12.7794,45.0367,77.09,79,0,18.21,YE,1615682545
312,Kirkuk,35.4681,44.3922,49.66,58,0,3.0,IQ,1615682765
313,Nome,64.5011,-165.4064,10.4,67,1,26.46,US,1615682765
314,Bermeo,43.4209,-2.7215,53.01,93,75,10.36,ES,1615682766
315,Pemangkat,1.1667,108.9667,79.9,80,31,6.02,ID,1615682766
316,Frolovo,49.7713,43.6622,28.0,87,100,5.99,RU,1615682766
317,Amapá,1.0,-52.0,72.25,98,100,2.21,BR,1615682766
318,Siilinjärvi,63.0833,27.6667,32.0,93,75,6.91,FI,1615682767
319,Jiuquan,39.7432,98.5174,51.22,18,0,6.26,CN,1615682767
320,Nemuro,43.3236,145.575,35.6,60,75,11.5,JP,1615682768
321,Mezen',65.8522,44.24,18.36,96,98,4.59,RU,1615682768
322,Pangody,65.85,74.4859,8.22,94,100,13.09,RU,1615682768
323,Hirara,24.8,125.2833,69.8,64,75,8.05,JP,1615682769
324,Rio Grande,-32.035,-52.0986,71.31,88,2,10.0,BR,1615682691
325,Kununurra,-15.7667,128.7333,87.8,74,40,9.22,AU,1615682769
326,Maridi,4.9158,29.4742,70.84,63,67,2.8,SS,1615682769
327,Atikokan,48.7555,-91.6216,32.95,77,0,6.64,CA,1615682770
328,Quelimane,-17.8786,36.8883,78.8,94,0,2.08,MZ,1615682770
329,Urubichá,-15.3833,-62.95,74.82,80,100,1.39,BO,1615682770
330,Río Gallegos,-51.6226,-69.2181,50.0,43,0,9.22,AR,1615682489
331,Huangmei,30.1924,116.025,58.44,73,0,4.5,CN,1615682771
332,Mareeba,-17.0,145.4333,88.0,62,75,8.05,AU,1615682771
333,Mawlaik,23.6333,94.4167,72.5,44,53,0.98,MM,1615682606
334,Punalūr,9.0,76.9333,78.8,78,20,3.44,IN,1615682704
335,Nampula,-15.1165,39.2666,68.88,98,100,1.92,MZ,1615682724
336,Ojinaga,29.5667,-104.4167,68.0,8,90,28.77,MX,1615682772
337,Neiafu,-18.65,-173.9833,84.2,74,40,5.75,TO,1615682772
338,Saint Anthony,45.0205,-93.218,55.4,38,1,10.36,US,1615682773
339,Wonthaggi,-38.6044,145.5913,64.99,55,8,9.48,AU,1615682773
340,Liwale,-9.7667,37.9333,69.1,98,98,2.55,TZ,1615682773
341,Port Augusta,-32.5,137.7667,64.4,55,75,14.97,AU,1615682774
342,Byron Bay,-28.65,153.6167,82.4,65,40,9.22,AU,1615682653
343,Bhadrāchalam,17.6667,80.8833,65.71,80,56,2.19,IN,1615682774
344,Lukang,24.0567,120.4352,68.0,68,20,11.5,TW,1615682774
345,Ulladulla,-35.35,150.4667,57.2,100,90,14.97,AU,1615682775
346,Šamorín,48.0302,17.3097,48.2,57,0,8.05,SK,1615682775
347,Hong Gai,20.956,107.0946,69.8,94,20,2.3,VN,1615682775
348,Yokadouma,3.5167,15.05,70.57,92,100,3.44,CM,1615682776
349,Mouila,-1.8685,11.0559,73.92,98,100,3.06,GA,1615682776
350,Rāvar,31.2656,56.8055,41.61,63,0,0.43,IR,1615682776
351,Neuquén,-38.9516,-68.0591,71.6,53,0,2.3,AR,1615682490
352,Vardø,70.3705,31.1107,25.66,88,100,7.11,NO,1615682777
353,Tari,12.4086,4.4914,80.24,16,51,7.87,NG,1615682777
354,Hailar,49.2,119.7,33.44,58,38,18.43,CN,1615682777
355,Saldanha,-33.0117,17.9442,68.0,88,99,3.44,ZA,1615682778
356,Merauke,-8.4667,140.3333,82.38,78,89,5.5,ID,1615682778
357,Esperance,-33.8667,121.9,60.8,63,79,6.91,AU,1615682778
358,Oneonta,42.4529,-75.0638,33.01,48,0,1.01,US,1615682766
359,Zheleznodorozhnyy,55.7503,38.0042,28.99,93,90,8.95,RU,1615682779
360,Babu,24.4167,111.5167,71.44,76,41,0.63,CN,1615682779
361,Iquitos,-3.7481,-73.2472,82.4,74,75,2.3,PE,1615682690
362,Kulhudhuffushi,6.6221,73.07,82.18,77,69,12.5,MV,1615682780
363,Hambantota,6.1241,81.1185,73.4,100,20,3.44,LK,1615682780
364,Porbandar,21.6422,69.6093,73.42,65,0,12.21,IN,1615682780
365,Takoradze,4.8845,-1.7554,80.2,83,100,10.02,GH,1615682781
366,Omboué,-1.5746,9.2618,78.53,87,98,3.76,GA,1615682781
367,Miyako,39.6367,141.9525,42.28,85,100,20.22,JP,1615682781
368,Bilma,18.6853,12.9164,77.61,12,0,6.22,NE,1615682781
369,Port Lincoln,-34.7333,135.8667,59.72,51,100,8.57,AU,1615682782
370,Cabo San Lucas,22.8909,-109.9124,69.01,60,1,9.22,MX,1615682538
371,Husavik,66.0449,-17.3389,21.2,79,0,9.22,IS,1615682782
372,Monte Alegre,-2.0078,-54.0692,73.76,91,100,0.63,BR,1615682783
373,Peachtree City,33.3968,-84.5958,73.4,56,75,4.61,US,1615682701
374,Olafsvik,64.8945,-23.7142,28.42,72,100,14.34,IS,1615682783
375,Kiama,-34.6833,150.8667,63.0,93,100,5.99,AU,1615682590
376,Sinnamary,5.3833,-52.95,77.59,88,100,12.06,GF,1615682783
377,Chifeng,42.2683,118.9636,43.05,43,100,4.61,CN,1615682784
378,Vandavāsi,12.5,79.6167,70.18,81,0,3.2,IN,1615682725
379,Sitka,57.0531,-135.33,33.8,55,20,9.22,US,1615682676
380,Port Hawkesbury,45.6169,-61.3485,28.0,74,90,18.41,CA,1615682784
381,Kirakira,-10.4544,161.9205,76.66,89,100,3.53,SB,1615682785
382,Mukhen,48.1,136.1,36.95,69,0,3.56,RU,1615682785
383,Springfield,37.2153,-93.2982,53.6,94,90,12.66,US,1615682573
384,Guadalupe Victoria,32.2869,-115.105,69.8,21,1,11.5,MX,1615682785
385,Mehamn,71.0357,27.8492,22.42,85,100,5.73,NO,1615682786
386,Bacolod City,10.6667,122.95,82.24,75,50,2.98,PH,1615682786
387,Khovd,48.0056,91.6419,12.45,31,63,16.13,MN,1615682786
388,Aklavik,68.2191,-135.0107,-2.2,60,1,5.75,CA,1615682540
389,Akdepe,42.0551,59.3788,15.8,57,100,6.91,TM,1615682787
390,Hobyo,5.3505,48.5268,79.63,82,99,13.15,SO,1615682787
391,Zhezkazgan,47.8043,67.7144,3.78,77,100,15.08,KZ,1615682787
392,Lac du Bonnet,50.2536,-96.0612,30.88,78,0,6.22,CA,1615682788
393,Amalāpuram,16.5833,82.0167,77.0,78,41,4.61,IN,1615682788
394,Lukaya,-0.1489,31.8748,69.8,94,20,4.61,UG,1615682788
395,Erenhot,43.6475,111.9767,45.64,65,0,11.05,CN,1615682789
396,Te Anau,-45.4167,167.7167,65.77,52,11,11.79,NZ,1615682789
397,Mil'kovo,54.7167,158.6167,23.49,67,2,6.96,RU,1615682789
398,Nagorsk,59.3172,50.8078,12.24,91,100,11.1,RU,1615682790
399,Wagar,16.1525,36.2032,68.56,87,0,9.31,SD,1615682790
400,Sokolniki,50.638,21.8065,48.99,64,100,5.99,PL,1615682791
401,Kadnikov,59.5022,40.338,22.17,94,100,8.14,RU,1615682791
402,Acarí,-15.4311,-74.6158,74.05,82,1,4.25,PE,1615682791
403,Vila,42.0304,-8.1588,45.0,89,30,0.89,PT,1615682792
404,Yerbogachën,61.2767,108.0108,2.17,90,72,11.86,RU,1615682792
405,Chapleau,47.8405,-83.4034,33.8,75,20,8.05,CA,1615682792
406,Esqueda,30.7167,-109.5833,48.6,30,0,17.6,MX,1615682793
407,Kajaani,64.2273,27.7285,30.2,93,90,6.91,FI,1615682793
408,Coahuayana Viejo,18.7333,-103.6833,84.2,39,1,11.5,MX,1615682793
409,Lázaro Cárdenas,17.9583,-102.2,75.47,77,0,4.0,MX,1615682794
410,Namatanai,-3.6667,152.4333,85.41,56,1,3.71,PG,1615682794
411,Comodoro Rivadavia,-45.8667,-67.5,57.2,72,20,6.91,AR,1615682701
412,Jasper,37.2001,-94.3502,61.0,82,90,12.66,US,1615682794
413,Mumford,5.2618,-0.759,81.48,78,100,11.63,GH,1615682795
414,Tromsø,69.6496,18.957,35.6,87,40,8.05,NO,1615682795
415,Barcelos,41.5388,-8.6151,48.0,93,20,3.47,PT,1615682795
416,Anadyr,64.75,177.4833,28.0,80,20,6.71,RU,1615682796
417,Longhua,23.6137,114.1919,73.42,74,43,1.1,CN,1615682796
418,Vila Franca do Campo,37.7167,-25.4333,59.0,100,75,17.27,PT,1615682796
419,Río Tercero,-32.173,-64.1141,64.99,89,6,1.99,AR,1615682797
420,Ouadda,8.0777,22.4007,73.53,41,98,3.71,CF,1615682797
421,Ende,-8.8432,121.6623,84.4,74,97,1.63,ID,1615682797
422,Ostrovnoy,68.0531,39.5131,11.68,92,91,10.42,RU,1615682798
423,Petropavlovsk-Kamchatskiy,53.0452,158.6483,28.4,64,15,11.18,RU,1615682704
424,Orlik,52.5178,99.825,-2.04,84,100,6.55,RU,1615682798
425,Nuuk,64.1835,-51.7216,14.0,67,40,14.97,GL,1615682564
426,Uglovoye,44.8215,33.6045,42.01,56,98,4.97,UA,1615682799
427,Road Town,18.4167,-64.6167,77.0,73,40,4.61,VG,1615682641
428,São Félix do Xingu,-6.6447,-51.995,70.93,98,100,1.21,BR,1615682799
429,Flinders,-34.5833,150.8552,63.0,88,100,7.0,AU,1615682799
430,Taman',45.2117,36.7161,37.4,70,97,6.71,RU,1615682800
431,Shamary,57.3434,58.2199,4.89,94,100,9.84,RU,1615682800
432,Manokwari,-0.8667,134.0833,81.9,71,98,3.18,ID,1615682800
433,Mayskiy,47.6931,40.1025,33.8,75,75,11.18,RU,1615682801
434,Haines Junction,60.7522,-137.5108,6.8,43,100,14.97,CA,1615682801
435,Biri,12.6833,124.3636,79.14,87,100,9.15,PH,1615682802
436,Katherine,-14.4667,132.2667,86.0,66,85,4.61,AU,1615682802
437,Samut Songkhram,13.4,99.9583,82.99,90,7,3.38,TH,1615682802
438,Ciudad Bolivar,8.1222,-63.5497,80.85,68,100,8.95,VE,1615682802
439,Vila Velha,-20.3297,-40.2925,77.0,88,0,2.3,BR,1615682798
440,Mkwanga,-7.118,39.2078,77.0,83,40,3.44,TZ,1615682803
441,Aksu,41.1231,80.2644,48.36,34,100,5.3,CN,1615682803
442,Sistranda,63.7256,8.834,35.6,75,0,11.5,NO,1615682804
443,Port-Gentil,-0.7193,8.7815,81.7,78,99,9.8,GA,1615682804
444,Goderich,43.7501,-81.7165,39.2,60,0,13.8,CA,1615682804
445,Jalu,29.0331,21.5482,58.86,40,55,8.68,LY,1615682805
446,Lorengau,-2.0226,147.2712,84.88,64,74,3.62,PG,1615682805
447,Corinth,37.9407,22.9573,51.01,64,100,1.99,GR,1615682805
448,Ossora,59.2353,163.0719,8.44,66,97,3.38,RU,1615682806
449,Deputatsky,69.3,139.9,-18.98,79,0,2.57,RU,1615682806
450,Raja,8.4596,25.678,75.74,29,100,2.39,SS,1615682806
451,Kumul,42.8,93.45,50.68,30,26,6.76,CN,1615682807
452,Marsh Harbour,26.5412,-77.0636,71.47,68,15,10.96,BS,1615682807
453,Kavieng,-2.5744,150.7967,84.69,60,58,2.24,PG,1615682807
454,Puerto Suárez,-18.95,-57.8,77.45,71,67,3.15,BO,1615682808
455,Necochea,-38.5473,-58.7368,66.99,91,86,1.99,AR,1615682808
456,Itaberaí,-16.0203,-49.8103,70.48,90,100,1.61,BR,1615682808
457,Banff,51.1762,-115.5698,57.2,30,100,5.75,CA,1615682616
458,Kedrovyy,56.1667,91.8167,6.8,61,100,17.9,RU,1615682809
459,Puerto Madero,14.7208,-92.4215,84.2,70,75,11.5,MX,1615682809
460,Kagadi,0.9606,30.7967,70.29,50,100,2.08,UG,1615682810
461,Daru,-9.0763,143.2092,81.55,82,100,7.38,PG,1615682810
462,Piltene,57.2243,21.6744,35.6,100,90,8.05,LV,1615682810
463,Nyrob,60.733,56.7202,13.03,93,100,11.68,RU,1615682811
464,Marawi,7.9986,124.2928,82.0,77,85,4.0,PH,1615682811
465,Khani,41.9563,42.9566,42.8,52,0,28.77,GE,1615682811
466,Xihe,31.6864,113.4659,57.25,76,0,8.79,CN,1615682812
467,Ust-Maya,60.4167,134.5333,23.83,86,100,13.51,RU,1615682812
468,Marsá Maţrūḩ,31.3525,27.2453,56.57,78,8,3.36,EG,1615682812
469,Manakara,-22.1333,48.0167,72.84,90,45,2.86,MG,1615682813
470,Pauini,-7.7136,-66.9764,74.79,90,14,1.59,BR,1615682813
471,Solnechnyy,50.7214,136.6319,32.34,84,27,7.31,RU,1615682813
472,Eyrarbakki,63.863,-21.1481,23.0,68,0,5.75,IS,1615682814
473,Gigmoto,13.7796,124.39,77.2,92,100,5.88,PH,1615682814
474,Aykhal,66.0,111.5,2.34,92,100,19.33,RU,1615682814
475,Hervey Bay,-25.2986,152.8535,82.4,65,40,5.75,AU,1615682815
476,Madeji,27.7544,68.4526,84.2,42,40,5.77,PK,1615682815
477,Manta,-0.95,-80.7333,80.6,83,75,3.44,EC,1615682815
478,Tura,25.5198,90.2201,68.83,50,69,0.04,IN,1615682816
479,Lincoln,40.8,-96.667,46.99,81,90,13.8,US,1615682816
480,Srednekolymsk,67.45,153.6833,-13.4,90,52,3.96,RU,1615682816
481,Chara,56.9064,118.2631,21.07,94,100,3.98,RU,1615682816
482,San Felipe,10.3399,-68.7425,71.33,94,88,4.21,VE,1615682817
483,Gamba,-2.65,10.0,78.96,90,100,4.68,GA,1615682817
484,San Matías,-16.3667,-58.4,78.08,76,100,3.78,BO,1615682818
485,Camacha,33.0833,-16.3333,59.0,72,75,14.97,PT,1615682818
486,Moshenskoye,58.5102,34.5911,31.69,92,100,7.43,RU,1615682818
487,Prince Rupert,54.3161,-130.3201,33.8,100,90,8.05,CA,1615682653
488,Pangai,-19.8,-174.35,84.2,65,20,4.61,TO,1615682819
489,San Quintín,30.4833,-115.95,56.71,71,0,19.42,MX,1615682819
490,Florence,43.7667,11.25,55.4,62,75,11.5,IT,1615682819
491,Lakatoro,-16.0999,167.4164,82.38,76,100,6.06,VU,1615682820
492,Kalianget,-7.05,113.9333,82.38,72,19,1.61,ID,1615682820
493,Plátanos,37.6667,21.6167,50.0,93,40,3.2,GR,1615682820
494,Severo-Kuril'sk,50.6789,156.125,31.91,94,92,21.54,RU,1615682821
495,Linxi,39.7,118.4333,49.64,61,100,4.83,CN,1615682821
496,Kidal,18.4411,1.4078,67.57,35,38,10.51,ML,1615682821
497,Troitskoye,52.9821,84.6757,-10.1,99,55,5.84,RU,1615682822
498,Egvekinot,66.3167,-179.1667,25.92,97,100,18.79,RU,1615682822
499,Villanueva de la Serena,38.9766,-5.7974,46.0,74,0,3.0,ES,1615682822
500,Castellammare del Golfo,38.0188,12.8858,59.0,88,40,4.61,IT,1615682823
501,Talas,38.6908,35.5538,30.2,93,75,2.3,TR,1615682823
502,Okha,53.5739,142.9478,31.91,84,100,12.66,RU,1615682823
503,Moree,-29.4667,149.85,73.4,83,90,8.05,AU,1615682824
504,Talā,30.6803,30.9429,47.71,90,0,3.65,EG,1615682824
505,Falkenberg,56.9055,12.4912,35.6,100,90,6.38,SE,1615682824
506,Orange Cove,36.6244,-119.3137,64.99,39,1,3.44,US,1615682740
507,Chapais,49.7834,-74.8492,14.0,92,90,6.91,CA,1615682825
508,Mira,45.4358,12.1348,46.0,100,9,2.3,IT,1615682825
509,Okhotsk,59.3833,143.3,3.6,52,100,2.26,RU,1615682826
510,Lagan,45.3929,47.3707,30.4,65,78,14.76,RU,1615682826
511,Touros,-5.1989,-35.4608,80.6,74,40,9.22,BR,1615682826
512,Lata,40.1629,-8.3327,52.0,89,0,1.01,PT,1615682826
513,Hammerfest,70.6634,23.6821,26.6,86,90,4.61,NO,1615682541
514,George Town,5.4112,100.3354,80.6,88,20,2.3,MY,1615682709
515,Remontnoye,46.5614,43.6501,26.6,80,100,15.66,RU,1615682827
516,Woodward,36.4337,-99.3904,64.4,100,90,16.11,US,1615682827
517,Burnie,-41.0667,145.9167,57.99,50,19,5.99,AU,1615682828
518,Kloulklubed,7.0419,134.2556,82.4,89,75,4.61,PW,1615682828
519,Krasnosel'kup,65.7,82.4667,-21.01,79,69,12.46,RU,1615682828
520,Conceição da Barra,-18.5933,-39.7322,74.75,89,0,5.3,BR,1615682829
521,Riohacha,11.5444,-72.9072,76.68,81,2,14.88,CO,1615682732
522,Sur,22.5667,59.5289,78.57,33,0,14.76,OM,1615682829
523,Masuguru,-11.3667,38.4167,69.89,96,100,3.06,TZ,1615682830
524,Hamilton,39.1834,-84.5333,46.99,48,44,3.04,US,1615682830
525,Nouakchott,18.0858,-15.9785,68.0,77,0,9.22,MR,1615682644
526,Baruun-Urt,46.6806,113.2792,43.02,48,0,20.8,MN,1615682830
527,Ust-Kuyga,70.0167,135.6,-10.91,85,65,6.2,RU,1615682831
528,Cairns,-16.9167,145.7667,88.0,62,75,8.05,AU,1615682831
529,Domoni,-12.2569,44.5319,79.84,82,100,5.39,KM,1615682831
530,Mirny,62.5353,113.9611,4.3,89,14,10.38,RU,1615682832
531,Anori,-3.7728,-61.6442,74.05,86,100,2.77,BR,1615682832
532,Rabo de Peixe,37.8,-25.5833,59.0,100,75,17.27,PT,1615682832
533,Winnemucca,40.973,-117.7357,55.4,18,1,5.75,US,1615682833
534,Mahon,39.8885,4.2658,51.8,87,0,6.91,ES,1615682824
535,Terrace,54.5163,-128.6035,32.0,100,90,4.61,CA,1615682833
536,Mutsu,41.2894,141.2169,42.8,87,75,9.22,JP,1615682833
537,La Santisima Trinidad,-14.8333,-64.9,75.45,77,100,1.72,BO,1615682834
538,Kastamonu Province,41.5,33.6667,34.0,64,34,0.96,TR,1615682834
539,Bengkulu,-3.8004,102.2655,79.36,72,100,3.29,ID,1615682834
540,Winslow,35.0242,-110.6974,39.99,63,99,5.01,US,1615682835
541,Mitsamiouli,-11.3847,43.2844,81.97,72,100,3.6,KM,1615682835
542,Dakar,14.6937,-17.4441,69.8,68,0,9.22,SN,1615682604
543,Luchenza,-16.0069,35.3095,67.93,98,96,6.24,MW,1615682835
544,Bari,41.1177,16.8512,52.0,81,0,5.75,IT,1615682785
545,Lethem,3.3803,-59.7968,77.72,76,90,3.4,GY,1615682836
546,Atambua,-9.1061,124.8925,80.78,77,70,2.13,ID,1615682836
547,Port Montt,-41.4698,-72.9447,51.8,93,0,4.61,CL,1615682836
548,Tuskegee,32.424,-85.6916,75.2,46,1,3.44,US,1615682837
549,Olds,51.7834,-114.102,55.4,40,7,18.41,CA,1615682802
550,Shache,38.4167,77.2406,45.3,35,50,3.98,CN,1615682837
551,Paita,-5.0892,-81.1144,77.88,73,37,14.09,PE,1615682838
552,Cervo,43.6702,-7.4101,52.0,88,100,3.0,ES,1615682838
553,Baoro,5.6667,15.9667,70.56,86,100,5.3,CF,1615682838
554,São Mateus do Maranhão,-4.0417,-44.475,72.91,97,10,3.36,BR,1615682839
555,Bukama,-9.2,25.85,67.03,86,41,1.59,CD,1615682839
556,Jamkhed,18.7362,75.3121,72.0,25,0,5.46,IN,1615682839
557,Newport,51.5877,-2.9984,46.0,75,43,4.0,GB,1615682681
558,Kirovskiy,45.0917,133.5136,32.14,86,2,2.53,RU,1615682840
559,Ørnes,66.8689,13.7078,32.0,80,75,14.97,NO,1615682840
560,Oriximiná,-1.7656,-55.8661,75.6,91,100,2.77,BR,1615682841
561,Denpasar,-8.65,115.2167,86.0,70,20,8.05,ID,1615682840
